[
  {
    "id": 1,
    "organization": "Red Cross",
    "location": "Downtown Asheville",
    "address": "100 Shelter Rd, Asheville, NC 28801",
    "category": "Shelter",
    "category2": "Information",
    "lat2lng": "35.5951,-82.5515",
    "latitude": 35.5951,
    "longitude": -82.5515,
    "hours": "24/7",
    "contact": "(828) 555-0100",
    "providing": "Temporary housing, hot meals",
    "needs": "Blankets, hygiene kits"
  },
  {
    "id": 2,
    "organization": "Mission Haven Shelter",
    "location": "West Asheville",
    "address": "202 Westwood Pl, Asheville, NC 28806",
    "category": "Shelter",
    "category2": "Supplies",
    "lat2lng": "35.5784,-82.5937",
    "latitude": 35.5784,
    "longitude": -82.5937,
    "hours": "Open 6am-10pm",
    "contact": "(828) 555-0111",
    "providing": "Beds, clothing, warm meals",
    "needs": "Sleeping bags, volunteers"
  },
  {
    "id": 3,
    "organization": "Asheville Food Bank",
    "location": "River Arts District",
    "address": "123 Riverside Dr, Asheville, NC 28801",
    "category": "Food",
    "category2": "Supplies",
    "lat2lng": "35.5849,-82.5666",
    "latitude": 35.5849,
    "longitude": -82.5666,
    "hours": "9am-5pm",
    "contact": "(828) 555-0122",
    "providing": "Food distribution, hot meals",
    "needs": "Canned goods, volunteers"
  },
  {
    "id": 4,
    "organization": "Meals on Relief",
    "location": "South Asheville",
    "address": "456 Sweeten Creek Rd, Asheville, NC 28803",
    "category": "Food",
    "category2": "Other",
    "lat2lng": "35.5416,-82.5193",
    "latitude": 35.5416,
    "longitude": -82.5193,
    "hours": "11am-3pm",
    "contact": "(828) 555-0133",
    "providing": "Meals for evacuees and responders",
    "needs": "Meal containers, fuel cards"
  },
  {
    "id": 5,
    "organization": "Threads of Hope",
    "location": "East Asheville",
    "address": "789 Tunnel Rd, Asheville, NC 28805",
    "category": "Clothes",
    "category2": "Other",
    "lat2lng": "35.5931,-82.4966",
    "latitude": 35.5931,
    "longitude": -82.4966,
    "hours": "10am-6pm",
    "contact": "(828) 555-0144",
    "providing": "Free clothing for all ages",
    "needs": "Coats, children's clothes"
  },
  {
    "id": 6,
    "organization": "Mountain Health Mobile Unit",
    "location": "Central Asheville",
    "address": "101 Healthway Dr, Asheville, NC 28801",
    "category": "Health",
    "category2": "Information",
    "lat2lng": "35.6001,-82.5440",
    "latitude": 35.6001,
    "longitude": -82.544,
    "hours": "8am-6pm",
    "contact": "(828) 555-0155",
    "providing": "Basic medical checkups, vaccines",
    "needs": "Medical volunteers, first aid kits"
  },
  {
    "id": 7,
    "organization": "Flood Relief Depot",
    "location": "North Asheville",
    "address": "303 Merrimon Ave, Asheville, NC 28801",
    "category": "Supplies",
    "category2": "Information",
    "lat2lng": "35.6146,-82.5540",
    "latitude": 35.6146,
    "longitude": -82.554,
    "hours": "9am-7pm",
    "contact": "(828) 555-0166",
    "providing": "Bottled water, tarps, flashlights",
    "needs": "Batteries, water jugs"
  },
  {
    "id": 8,
    "organization": "Asheville Animal Aid",
    "location": "South Slope",
    "address": "404 Biltmore Ave, Asheville, NC 28801",
    "category": "Animals",
    "category2": "Shelter",
    "lat2lng": "35.5894,-82.5509",
    "latitude": 35.5894,
    "longitude": -82.5509,
    "hours": "10am-6pm",
    "contact": "(828) 555-0177",
    "providing": "Animal boarding, pet food",
    "needs": "Pet crates, dry food"
  },
  {
    "id": 9,
    "organization": "TechLink Community Hub",
    "location": "Montford",
    "address": "505 Montford Ave, Asheville, NC 28801",
    "category": "Wifi/Charging",
    "category2": "Information",
    "lat2lng": "35.6050,-82.5640",
    "latitude": 35.605,
    "longitude": -82.564,
    "hours": "8am-8pm",
    "contact": "(828) 555-0188",
    "providing": "Free charging stations, internet",
    "needs": "Power strips, hotspots"
  },
  {
    "id": 10,
    "organization": "SpinCycle Clean Relief",
    "location": "West Asheville",
    "address": "606 Haywood Rd, Asheville, NC 28806",
    "category": "Laundry",
    "category2": "Other",
    "lat2lng": "35.5772,-82.5993",
    "latitude": 35.5772,
    "longitude": -82.5993,
    "hours": "7am-10pm",
    "contact": "(828) 555-0199",
    "providing": "Free laundry for flood victims",
    "needs": "Detergent, dryer sheets"
  },
  {
    "id": 11,
    "organization": "AVL Shuttle Services",
    "location": "Downtown Transit Center",
    "address": "200 Coxe Ave, Asheville, NC 28801",
    "category": "Transportation",
    "category2": "Information",
    "lat2lng": "35.5916,-82.5564",
    "latitude": 35.5916,
    "longitude": -82.5564,
    "hours": "6am-midnight",
    "contact": "(828) 555-0200",
    "providing": "Free transit to shelters and aid centers",
    "needs": "Drivers, fuel donations"
  },
  {
    "id": 12,
    "organization": "Claims Assistance AVL",
    "location": "East End",
    "address": "707 Charlotte St, Asheville, NC 28804",
    "category": "Insurance",
    "category2": "Information",
    "lat2lng": "35.6136,-82.5423",
    "latitude": 35.6136,
    "longitude": -82.5423,
    "hours": "9am-5pm",
    "contact": "(828) 555-0211",
    "providing": "Filing assistance, damage claims",
    "needs": "Laptops, bilingual staff"
  },
  {
    "id": 13,
    "organization": "AVL Disaster Info Line",
    "location": "City Hall",
    "address": "70 Court Plaza, Asheville, NC 28801",
    "category": "Information",
    "category2": "Other",
    "lat2lng": "35.5959,-82.5515",
    "latitude": 35.5959,
    "longitude": -82.5515,
    "hours": "24/7",
    "contact": "(828) 555-0222",
    "providing": "Official announcements, guidance",
    "needs": "Call center staff"
  },
  {
    "id": 14,
    "organization": "Community Builders Network",
    "location": "Downtown",
    "address": "808 Walnut St, Asheville, NC 28801",
    "category": "Other",
    "category2": "Information",
    "lat2lng": "35.5984,-82.5502",
    "latitude": 35.5984,
    "longitude": -82.5502,
    "hours": "10am-4pm",
    "contact": "(828) 555-0233",
    "providing": "Volunteer coordination, neighborhood support",
    "needs": "Volunteer captains, flyers"
  }
]
