[
  {
    "id": 1,
    "organization": "Lahaina Community Shelter",
    "location": "Lahaina",
    "address": "100 Front St, Lahaina, HI 96761",
    "category": "Shelter",
    "category2": "Information",
    "lat2lng": "20.8783,-156.6825",
    "latitude": 20.8783,
    "longitude": -156.683,
    "hours": "24/7",
    "contact": "(808) 555-1000",
    "providing": "Emergency lodging, meals",
    "needs": "Cots, bottled water"
  },
  {
    "id": 2,
    "organization": "Maui Strong Shelter",
    "location": "Kahului",
    "address": "200 Main St, Kahului, HI 96732",
    "category": "Shelter",
    "category2": "Supplies",
    "lat2lng": "20.8890,-156.4729",
    "latitude": 20.889,
    "longitude": -156.473,
    "hours": "Open 24 hours",
    "contact": "(808) 555-1001",
    "providing": "Beds, emergency kits",
    "needs": "Blankets, hygiene supplies"
  },
  {
    "id": 3,
    "organization": "Maui Food Bank",
    "location": "Wailuku",
    "address": "760 Kolu St, Wailuku, HI 96793",
    "category": "Food",
    "category2": "Supplies",
    "lat2lng": "20.8832,-156.5053",
    "latitude": 20.8832,
    "longitude": -156.505,
    "hours": "8am-6pm",
    "contact": "(808) 555-1002",
    "providing": "Food packages, meal kits",
    "needs": "Canned food, volunteers"
  },
  {
    "id": 4,
    "organization": "Island Nourish",
    "location": "Kihei",
    "address": "300 Piikea Ave, Kihei, HI 96753",
    "category": "Food",
    "category2": "Other",
    "lat2lng": "20.7577,-156.4572",
    "latitude": 20.7577,
    "longitude": -156.457,
    "hours": "10am-3pm",
    "contact": "(808) 555-1003",
    "providing": "Prepared meals, fresh produce",
    "needs": "Coolers, prep volunteers"
  },
  {
    "id": 5,
    "organization": "Threads of Aloha",
    "location": "Lahaina",
    "address": "250 Market St, Lahaina, HI 96761",
    "category": "Clothes",
    "category2": "Other",
    "lat2lng": "20.8820,-156.6812",
    "latitude": 20.882,
    "longitude": -156.681,
    "hours": "9am-5pm",
    "contact": "(808) 555-1004",
    "providing": "Free clothing donations",
    "needs": "Children's clothes, shoes"
  },
  {
    "id": 6,
    "organization": "Maui Mobile Health",
    "location": "Kahului",
    "address": "400 Kamehameha Ave, Kahului, HI 96732",
    "category": "Health",
    "category2": "Information",
    "lat2lng": "20.8869,-156.4725",
    "latitude": 20.8869,
    "longitude": -156.473,
    "hours": "8am-5pm",
    "contact": "(808) 555-1005",
    "providing": "Medical checkups, prescription refills",
    "needs": "Bandages, glucose monitors"
  },
  {
    "id": 7,
    "organization": "Relief Supply Depot",
    "location": "Makawao",
    "address": "500 Makani Rd, Makawao, HI 96768",
    "category": "Supplies",
    "category2": "Other",
    "lat2lng": "20.8460,-156.3161",
    "latitude": 20.846,
    "longitude": -156.316,
    "hours": "7am-7pm",
    "contact": "(808) 555-1006",
    "providing": "Flashlights, tarps, water",
    "needs": "Generators, batteries"
  },
  {
    "id": 8,
    "organization": "Paws of Maui",
    "location": "Kahului",
    "address": "600 Hana Hwy, Kahului, HI 96732",
    "category": "Animals",
    "category2": "Shelter",
    "lat2lng": "20.8884,-156.4707",
    "latitude": 20.8884,
    "longitude": -156.471,
    "hours": "10am-6pm",
    "contact": "(808) 555-1007",
    "providing": "Pet shelter, supplies",
    "needs": "Kennels, food"
  },
  {
    "id": 9,
    "organization": "Tech Relief Maui",
    "location": "Wailuku",
    "address": "700 Mill St, Wailuku, HI 96793",
    "category": "Wifi/Charging",
    "category2": "Information",
    "lat2lng": "20.8860,-156.5020",
    "latitude": 20.886,
    "longitude": -156.502,
    "hours": "9am-8pm",
    "contact": "(808) 555-1008",
    "providing": "Charging stations, free WiFi",
    "needs": "Cables, power banks"
  },
  {
    "id": 10,
    "organization": "Clean Start Maui",
    "location": "Lahaina",
    "address": "800 Front St, Lahaina, HI 96761",
    "category": "Laundry",
    "category2": "Other",
    "lat2lng": "20.8800,-156.6811",
    "latitude": 20.88,
    "longitude": -156.681,
    "hours": "7am-9pm",
    "contact": "(808) 555-1009",
    "providing": "Free laundry for evacuees",
    "needs": "Soap, dryer sheets"
  },
  {
    "id": 11,
    "organization": "Maui Shuttle Aid",
    "location": "Kahului Airport",
    "address": "1 Keolani Pl, Kahului, HI 96732",
    "category": "Transportation",
    "category2": "Information",
    "lat2lng": "20.8947,-156.4386",
    "latitude": 20.8947,
    "longitude": -156.439,
    "hours": "5am-11pm",
    "contact": "(808) 555-1010",
    "providing": "Shuttles to shelters and clinics",
    "needs": "Fuel vouchers, drivers"
  },
  {
    "id": 12,
    "organization": "Claims Help Hawaii",
    "location": "Wailuku",
    "address": "900 Main St, Wailuku, HI 96793",
    "category": "Insurance",
    "category2": "Information",
    "lat2lng": "20.8900,-156.5043",
    "latitude": 20.89,
    "longitude": -156.504,
    "hours": "10am-4pm",
    "contact": "(808) 555-1011",
    "providing": "Claim filing, disaster recovery",
    "needs": "Computers, printers"
  },
  {
    "id": 13,
    "organization": "Maui Disaster Info Line",
    "location": "Lahaina Civic Center",
    "address": "1501 Front St, Lahaina, HI 96761",
    "category": "Information",
    "category2": "Other",
    "lat2lng": "20.8960,-156.6793",
    "latitude": 20.896,
    "longitude": -156.679,
    "hours": "24/7",
    "contact": "(808) 555-1012",
    "providing": "News, alerts, coordination",
    "needs": "Staff, radios"
  },
  {
    "id": 14,
    "organization": "Aloha Relief Collective",
    "location": "Hana",
    "address": "100 Hana Hwy, Hana, HI 96713",
    "category": "Information",
    "category2": "Information",
    "lat2lng": "20.7545,-155.9943",
    "latitude": 20.7545,
    "longitude": -155.994,
    "hours": "10am-5pm",
    "contact": "(808) 555-1013",
    "providing": "Community coordination, volunteers",
    "needs": "Flyers, leaders"
  }
]